[
  {
    "name": "人民广场[地铁站]",
    "address": "地铁1号线,地铁2号线,地铁8号线",
    "latitude": 31.232708,
    "longitude": 121.475537,
    "geohash": "31.232708,121.475537"
  },
  {
    "name": "上海人民广场",
    "address": "上海市黄浦区人民大道201号",
    "latitude": 31.228725,
    "longitude": 121.475186,
    "geohash": "31.228725,121.475186"
  },
  {
    "name": "人民广场[公交站]",
    "address": "312路,46路,112路区间,123路,145路,51路,49路,都市观光旅游2线,451路",
    "latitude": 31.227323,
    "longitude": 121.474658,
    "geohash": "31.227323,121.474658"
  },
  {
    "name": "来福士广场",
    "address": "上海市黄浦区西藏中路268号",
    "latitude": 31.232399,
    "longitude": 121.476541,
    "geohash": "31.232399,121.476541"
  },
  {
    "name": "海底捞火锅(人民广场店)",
    "address": "上海市黄浦区南京东路830号第一百货商店(南京东路店)F5",
    "latitude": 31.236019,
    "longitude": 121.474452,
    "geohash": "31.236019,121.474452"
  },
  {
    "name": "人民公园",
    "address": "上海市黄浦区南京西路231号",
    "latitude": 31.232142,
    "longitude": 121.473161,
    "geohash": "31.232142,121.473161"
  },
  {
    "name": "人民广场(福州路)[公交站]",
    "address": "167路,18路,312路,318路,隧道三线,930路,隧道夜宵线,新川专线,49路,申城观光1号线,451路,537路",
    "latitude": 31.232436,
    "longitude": 121.475943,
    "geohash": "31.232436,121.475943"
  },
  {
    "name": "上海世茂广场",
    "address": "上海市黄浦区南京东路829号",
    "latitude": 31.234378,
    "longitude": 121.475736,
    "geohash": "31.234378,121.475736"
  },
  {
    "name": "人民广场(广东路)[公交站]",
    "address": "108路区间高峰线(原:108路区间),108路,537路,930路,454路,312路,318路,隧道三线,980路,隧道夜宵线,167路,上川专线",
    "latitude": 31.230773,
    "longitude": 121.477071,
    "geohash": "31.230773,121.477071"
  },
  {
    "name": "阿娘面馆(人民广场)",
    "address": "上海市黄浦区思南路36号",
    "latitude": 31.21761,
    "longitude": 121.466451,
    "geohash": "31.21761,121.466451"
  }
]