[
    {
        "name": "大场镇[地铁站]",
        "address": "地铁7号线",
        "latitude": 31.293321,
        "longitude": 121.416547,
        "geohash": "31.293321,121.416547"
    },
    {
        "name": "大场镇",
        "address": "上海市宝山区大场",
        "latitude": 31.297809,
        "longitude": 121.415635,
        "geohash": "31.297809,121.415635"
    },
    {
        "name": "大场",
        "address": "上海市奉贤区 ",
        "latitude": 30.909131,
        "longitude": 121.56242,
        "geohash": "30.909131,121.56242"
    },
    {
        "name": "大场",
        "address": "上海市松江区 ",
        "latitude": 30.903972,
        "longitude": 121.282491,
        "geohash": "30.903972,121.282491"
    },
    {
        "name": "大场[公交站]",
        "address": "332路,58路,551路,185路",
        "latitude": 31.299845,
        "longitude": 121.415586,
        "geohash": "31.299845,121.415586"
    },
    {
        "name": "上海市宝山区大场镇人民政府",
        "address": "上海市宝山区大华路1469号",
        "latitude": 31.28684,
        "longitude": 121.416929,
        "geohash": "31.28684,121.416929"
    },
    {
        "name": "大场镇华欣苑",
        "address": "上海市宝山区华灵西路1225弄",
        "latitude": 31.281684,
        "longitude": 121.419454,
        "geohash": "31.281684,121.419454"
    },
    {
        "name": "大场镇小学",
        "address": "上海市宝山区场联路135临",
        "latitude": 31.306014,
        "longitude": 121.411995,
        "geohash": "31.306014,121.411995"
    },
    {
        "name": "大场体育中心",
        "address": "上海市宝山区大场镇沪太路2010号",
        "latitude": 31.298203,
        "longitude": 121.413313,
        "geohash": "31.298203,121.413313"
    },
    {
        "name": "大场村",
        "address": "上海市金山区 ",
        "latitude": 30.904941,
        "longitude": 121.216151,
        "geohash": "30.904941,121.216151"
    }
]
